[{"id":10009,"name":"SCHOOL BASICS & MORE","street":"67620 HAZEL DELL RD","city":"LATHAM","region":"MO","postal":65050,"country":"US","telephone":6604586654,"longitude":-92.7076481787,"latitude":38.5335939307,"scalelimit":90},
  {"id":10022,"name":"CRAYOLA LLC","street":"1100 CHURCH LN","city":"EASTON","region":"PA","postal":180440431,"country":"US","telephone":6102536272,"longitude":-75.2244216238,"latitude":40.690932552,"scalelimit":90},
  {"id":10024,"name":"GONZALEZ OFFICE PRODUCTS TM#763","street":"2929 LONGHORN BLVD","city":"AUSTIN","region":"TX","postal":78758,"country":"US","telephone":5123002300,"longitude":-97.7279890518,"latitude":30.3809539765,"scalelimit":90},
  {"id":10045,"name":"MID VALLEY OFFICE SUPPLIES AND A","street":"927 W BUSINESS HWY 83","city":"WESLACO","region":"TX","postal":78596,"country":"US","telephone":9569688281,"longitude":-97.98636,"latitude":26.160167,"scalelimit":90},
  {"id":10048,"name":"MISSISSIPPI DISCOUNT DRUGS","street":"224 CLINTON BLVD","city":"CLINTON","region":"MS","postal":39056,"country":"US","telephone":6019245212,"longitude":-90.3138591652,"latitude":32.3348258858,"scalelimit":90},
  {"id":10058,"name":"LONESOURCE DO NOT USE SEE NOTE","street":"114 MCKENAN DR","city":"CARY","region":"NC","postal":27511,"country":"US","telephone":7707342342,"longitude":-78.8082031994,"latitude":35.7341209572,"scalelimit":90},
  {"id":10060,"name":"BEATTIES BASICS","street":"399 VANSICKLE RD","city":"ST. CATHARINES","region":"ON","postal":"L2S3T4","country":"CA","telephone":9056884040,"longitude":0,"latitude":0,"scalelimit":90},
  {"id":10079,"name":"IVE BEEN FRAMED","street":"4950 SE FOSTER RD","city":"PORTLAND","region":"OR","postal":97206,"country":"US","telephone":5037752651,"longitude":-122.6110950493,"latitude":45.4969645989,"scalelimit":90},
  {"id":10102,"name":"AFFORDABLE TREASURES","street":"15795 LOS GATOS BLVD","city":"LOS GATOS","region":"CA","postal":95032,"country":"US","telephone":4083563101,"longitude":-121.9620351263,"latitude":37.2390794125,"scalelimit":90},
  {"id":10136,"name":"RESTOCKIT.COM  TM208","street":"4350 OAKES RD SUITE 512","city":"DAVIE","region":"FL","postal":33314,"country":"US","telephone":8006800859,"longitude":-80.2071652922,"latitude":26.075359597,"scalelimit":90},
  {"id":10167,"name":"KB LEARNING CENTER INC","street":"1602 FORD AVE SUITE D","city":"EFFINGHAM","region":"IL","postal":62401,"country":"US","telephone":2173473343,"longitude":-88.58796,"latitude":39.12264,"scalelimit":90},
  {"id":10225,"name":"WEE WONDER EARLY CHILDHOOD COMPA","street":"8323 CULEBRA RD","city":"SAN ANTONIO","region":"TX","postal":78251,"country":"US","telephone":2103257156,"longitude":-98.6495408729,"latitude":29.4690216562,"scalelimit":90},
  {"id":10226,"name":"SNYDER PAPER CORPORATION","street":"250 26TH ST SE","city":"HICKORY","region":"NC","postal":28602,"country":"US","telephone":8283282501,"longitude":-81.37032,"latitude":35.6616,"scalelimit":90},
  {"id":10237,"name":"EYE CAN ART","street":"3030 44TH AVE SW","city":"SEATTLE","region":"WA","postal":98116,"country":"US","telephone":2068511457,"longitude":-122.395975,"latitude":47.5753,"scalelimit":90},
  {"id":1025,"name":"BINDER PRODUCTS","street":"PO BOX 1710","city":"SEATTLE","region":"WA","postal":98111,"country":"US","telephone":2064439424,"longitude":-122.334698,"latitude":47.610241,"scalelimit":90},
  {"id":10254,"name":"SCHOOL SUPPLY CONNECTION","street":"2798 EDWIN DR","city":"BEAVER CREEK","region":"OH","postal":45434,"country":"US","telephone":9379125995,"longitude":-84.0392281814,"latitude":39.7185823878,"scalelimit":90},
  {"id":10279,"name":"CLEVELAND COMMONS THE","street":"172 N SHARP AVE","city":"CLEVELAND","region":"MS","postal":38732,"country":"US","telephone":6628433802,"longitude":-90.7218907433,"latitude":33.7439597415,"scalelimit":90},
  {"id":10312,"name":"YELLOW BUS THE","street":"670 KING PARK DR STE 8","city":"BILLINGS","region":"MT","postal":59102,"country":"US","telephone":4066564300,"longitude":-108.5691451774,"latitude":45.7576320765,"scalelimit":90},
  {"id":10313,"name":"PLANET MIND LEARNING STORE","street":"108 N MAIN ST","city":"KOKOMO","region":"IN","postal":46902,"country":"US","telephone":7654522341,"longitude":-86.1312419969,"latitude":40.4865562788,"scalelimit":90},
  {"id":10321,"name":"ALIN PARTY SUPPLY","street":"4139 WOODRUFF AVE","city":"LAKEWOOD","region":"CA","postal":90713,"country":"US","telephone":5622820422,"longitude":-118.1166133016,"latitude":33.8329952185,"scalelimit":90},
  {"id":10322,"name":"CIELO OFFICE PRODUCTS - TM# 273","street":"1209 E HACKBERRY","city":"MCALLEN","region":"TX","postal":78501,"country":"US","telephone":9566886001,"longitude":-98.2066125799,"latitude":26.2079754604,"scalelimit":90},
  {"id":1033,"name":"I Q ZONE SUPERSTORE LLC","street":"10421 NW 41 ST","city":"MIAMI","region":"FL","postal":33178,"country":"US","telephone":3055926879,"longitude":-80.3682399149,"latitude":25.8117296123,"scalelimit":90},
  {"id":10344,"name":"VEACHS","street":"715 E MAIN ST","city":"RICHMOND","region":"IN","postal":47374,"country":"US","telephone":7659625761,"longitude":-84.8917178674,"latitude":39.8289576741,"scalelimit":90},
  {"id":10351,"name":"OFFICE360 TM159","street":"2002 S EAST ST","city":"INDIANAPOLIS","region":"IN","postal":46225,"country":"US","telephone":3176865754,"longitude":-86.1505570644,"latitude":39.7393515197,"scalelimit":90}]